City_ID,City,Country,Lat,Lng,Max Temp,Humidity,Cloudiness,Wind Speed,Weather Description
0,Helong,CN,42.5397,128.9972,67.64,17,71,3.74,broken clouds
1,Kapaa,US,22.0752,-159.319,73.4,78,75,12.66,broken clouds
2,Kefamenanu,ID,-9.4467,124.4781,82.65,45,32,5.39,scattered clouds
3,Busselton,AU,-33.65,115.3333,78.01,49,99,1.99,overcast clouds
4,Atuona,PF,-9.8,-139.0333,79.95,76,77,19.13,light rain
5,Shunyi,CN,40.125,116.6453,69.8,43,0,6.71,clear sky
6,Bluff,NZ,-46.6,168.3333,48.0,65,81,15.01,broken clouds
7,Oranjestad,AW,12.524,-70.027,79.0,83,20,14.97,few clouds
8,Punta Arenas,CL,-53.15,-70.9167,44.6,93,90,5.75,light rain
9,Ouadda,CF,8.0777,22.4007,70.16,91,100,5.19,overcast clouds
10,Husavik,IS,66.0449,-17.3389,35.6,80,90,5.75,overcast clouds
11,Arraial Do Cabo,BR,-22.9661,-42.0278,73.76,88,50,8.19,scattered clouds
12,Saint-Philippe,RE,-21.3585,55.7679,80.6,65,0,16.11,light rain
13,Tuktoyaktuk,CA,69.4541,-133.0374,12.2,85,90,12.66,light snow
14,Manthani,IN,18.65,79.6667,98.78,25,1,7.54,clear sky
15,Georgetown,MY,5.4112,100.3354,89.6,66,40,5.75,scattered clouds
16,Lompoc,US,34.6391,-120.4579,51.8,87,100,4.61,overcast clouds
17,Lebu,CL,-37.6167,-73.65,53.92,93,21,10.16,few clouds
18,New Norfolk,AU,-42.7826,147.0587,62.01,75,100,5.99,overcast clouds
19,Verkhoyansk,RU,67.5447,133.385,34.65,99,100,4.61,overcast clouds
20,Manjacaze,MZ,-24.7117,33.8828,68.47,89,0,2.62,clear sky
21,Fatehpur,IN,25.9333,80.8,100.94,6,41,9.19,scattered clouds
22,Mataura,NZ,-46.1927,168.8643,48.0,65,96,15.01,overcast clouds
23,Hundested,DK,55.9667,11.8667,39.0,100,61,1.01,broken clouds
24,Invermere,CA,50.5167,-116.0354,37.0,92,100,1.01,overcast clouds
25,Hobart,AU,-42.8794,147.3294,64.4,42,20,18.41,few clouds
26,Bredasdorp,ZA,-34.5322,20.0403,50.0,93,79,1.14,broken clouds
27,Jamestown,US,42.097,-79.2353,32.0,86,20,10.36,few clouds
28,Altamira,BR,-3.2033,-52.2064,71.96,97,93,0.51,overcast clouds
29,Kavieng,PG,-2.5744,150.7967,84.13,67,92,4.32,overcast clouds
30,Eureka,US,40.8021,-124.1637,48.99,84,69,1.01,broken clouds
31,East London,ZA,-33.0153,27.9116,62.6,67,0,4.61,clear sky
32,Jalu,LY,29.0331,21.5482,60.21,62,0,6.58,clear sky
33,Nampula,MZ,-15.1165,39.2666,71.6,94,40,2.3,scattered clouds
34,Port Alfred,ZA,-33.5906,26.891,71.47,43,95,6.76,overcast clouds
35,Qandala,SO,11.472,49.8728,87.57,51,26,7.61,scattered clouds
36,Ucluelet,CA,48.9329,-125.5528,48.99,86,100,3.02,overcast clouds
37,Butaritari,KI,3.0707,172.7902,82.81,74,16,12.86,light rain
38,Yar-Sale,RU,66.8333,70.8333,33.57,99,100,15.26,overcast clouds
39,Banjar,ID,-8.19,114.9675,87.8,74,20,18.41,few clouds
40,Margate,GB,51.3813,1.3862,43.0,66,11,5.01,few clouds
41,Statesville,US,35.7826,-80.8873,46.4,87,1,5.7,clear sky
42,Porbandar,IN,21.6422,69.6093,93.2,46,0,16.11,clear sky
43,Petropavlovsk-Kamchatskiy,RU,53.0452,158.6483,37.4,100,90,11.18,light rain
44,Mar Del Plata,AR,-38.0023,-57.5575,60.01,88,75,3.44,broken clouds
45,Port Lincoln,AU,-34.7333,135.8667,66.36,63,2,9.22,clear sky
46,Yuci,CN,37.6803,112.7319,68.0,37,30,4.47,scattered clouds
47,Aripuana,BR,-9.1667,-60.6333,71.4,98,100,3.51,very heavy rain
48,Taoudenni,ML,22.6783,-3.9836,84.25,16,8,9.31,clear sky
49,Karratha,AU,-20.7377,116.8463,88.23,19,0,15.26,clear sky
50,Saint George,US,37.1041,-113.5841,70.0,16,1,4.47,clear sky
51,Honningsvag,NO,70.9821,25.9704,32.0,86,75,5.75,snow
52,Rikitea,PF,-23.1203,-134.9692,77.81,75,33,5.19,scattered clouds
53,Miranda,CO,3.2499,-76.2281,68.0,94,40,4.47,scattered clouds
54,Mount Gambier,AU,-37.8333,140.7667,60.8,67,90,8.05,overcast clouds
55,Nikolskoye,RU,59.7035,30.7861,39.0,93,90,8.95,overcast clouds
56,Klaksvik,FO,62.2266,-6.589,44.6,93,100,16.11,overcast clouds
57,Swan Hill,AU,-35.3378,143.5544,69.33,31,0,9.46,clear sky
58,Kavaratti,IN,10.5669,72.642,84.42,72,18,7.0,few clouds
59,Rawson,AR,-43.3002,-65.1023,58.68,54,26,15.73,scattered clouds
60,Obo,CF,5.3998,26.4869,69.13,91,100,2.84,overcast clouds
61,Yellowknife,CA,62.456,-114.3525,5.0,78,90,14.97,light snow
62,Ust-Nera,RU,64.5667,143.2,23.56,80,100,5.73,overcast clouds
63,Cape Town,ZA,-33.9258,18.4232,61.0,88,20,10.36,few clouds
64,Staryy Nadym,RU,65.6118,72.6842,34.36,97,100,19.48,overcast clouds
65,Zhigansk,RU,66.7697,123.3711,25.9,93,100,15.75,light snow
66,Vaini,TO,-21.2,-175.2,78.8,83,75,4.61,light rain
67,Oktyabrskiy,RU,54.4815,53.471,44.47,52,1,17.78,clear sky
68,Puerto Ayora,EC,-0.7393,-90.3518,74.43,88,4,6.73,clear sky
69,Hilo,US,19.7297,-155.09,73.4,78,90,4.61,light rain
70,Chuy,UY,-33.6971,-53.4616,59.16,77,60,8.1,broken clouds
71,Nishihara,JP,26.1842,127.7558,78.8,60,20,12.66,few clouds
72,Iqaluit,CA,63.7506,-68.5145,32.0,93,90,2.3,light snow
73,Longyearbyen,SJ,78.2186,15.6401,15.8,73,20,5.75,few clouds
74,Tasiilaq,GL,65.6145,-37.6368,39.2,65,90,17.27,overcast clouds
75,Isangel,VU,-19.55,169.2667,77.36,81,91,13.4,overcast clouds
76,Dikson,RU,73.5069,80.5464,20.16,93,100,21.94,light snow
77,Mirnyy,RU,62.5353,113.9611,24.67,63,100,15.08,overcast clouds
78,Saskylakh,RU,71.9167,114.0833,14.41,89,100,20.69,overcast clouds
79,Tura,IN,25.5198,90.2201,97.68,17,33,7.7,scattered clouds
80,Thompson,CA,55.7435,-97.8558,26.6,100,90,2.3,light snow
81,San Jose,US,37.3394,-121.895,51.8,76,40,6.91,scattered clouds
82,Norman Wells,CA,65.282,-126.8329,26.6,54,75,3.44,broken clouds
83,Qaanaaq,GL,77.484,-69.3632,28.4,62,10,9.82,clear sky
84,Saalfeld,DE,50.65,11.3667,33.01,77,50,2.46,scattered clouds
85,Cidreira,BR,-30.1811,-50.2056,62.51,68,53,12.48,broken clouds
86,Vung Tau,VN,10.346,107.0843,85.84,67,77,6.71,broken clouds
87,Ushuaia,AR,-54.8,-68.3,46.4,81,90,4.61,overcast clouds
88,Tripoli,LY,32.8752,13.1875,63.23,69,99,11.63,overcast clouds
89,Carnot,CF,4.9409,15.8665,69.64,91,80,0.78,broken clouds
90,Solomenskoye,RU,44.2167,44.3528,51.1,74,100,9.91,moderate rain
91,Amahai,ID,-3.3333,128.9167,85.17,60,8,5.82,clear sky
92,Aklavik,CA,68.2191,-135.0107,14.0,79,100,9.22,overcast clouds
93,Bonavista,CA,48.6499,-53.1147,41.0,75,15,5.75,few clouds
94,Hermanus,ZA,-34.4187,19.2345,60.01,89,1,5.01,clear sky
95,Katsuura,JP,35.1333,140.3,66.0,25,20,17.27,few clouds
96,Mackay,AU,-21.15,149.2,77.0,65,40,17.27,scattered clouds
97,Putina,PE,-15.4667,-69.4333,40.51,78,57,4.16,broken clouds
98,Ahipara,NZ,-35.1667,173.1667,61.65,69,28,7.54,scattered clouds
99,Port Hedland,AU,-20.3167,118.5667,87.8,27,0,11.5,clear sky
100,Biak,ID,-0.9131,122.8766,83.14,67,66,6.46,broken clouds
101,Chokurdakh,RU,70.6333,147.9167,30.92,98,100,10.0,light snow
102,Castro,BR,-24.7911,-50.0119,55.62,96,81,2.3,broken clouds
103,Sakakah,SA,29.9697,40.2064,78.8,22,0,11.5,clear sky
104,Pag,HR,44.445,15.0575,44.6,87,0,1.14,clear sky
105,Wabag,PG,-5.4781,143.7021,63.25,85,94,3.65,overcast clouds
106,Nemuro,JP,43.3236,145.575,42.8,26,20,12.66,few clouds
107,Nabire,ID,-3.3667,135.4833,85.28,66,74,4.61,broken clouds
108,Along,IN,28.1667,94.7667,95.31,20,14,1.07,few clouds
109,Ambon,ID,-3.6954,128.1814,89.6,58,40,8.05,scattered clouds
110,Alugan,PH,12.2188,125.4808,81.97,65,20,11.59,few clouds
111,Guarapari,BR,-20.6667,-40.4975,77.0,83,0,6.91,clear sky
112,Bosaso,SO,11.2842,49.1816,86.0,62,0,19.57,clear sky
113,Palmer,US,42.1584,-72.3287,46.99,49,1,18.41,clear sky
114,Havoysund,NO,70.9963,24.6622,33.8,86,75,10.36,light snow
115,Narsaq,GL,60.9167,-46.05,50.0,32,75,32.21,light rain
116,Constitucion,CL,-35.3333,-72.4167,56.14,76,0,8.61,clear sky
117,Pevek,RU,69.7008,170.3133,26.08,85,99,3.15,overcast clouds
118,Jaora,IN,23.6333,75.1333,96.17,6,4,6.17,clear sky
119,Santa Maria,BR,-29.6842,-53.8069,51.67,82,11,2.19,few clouds
120,Ereymentau,KZ,51.6199,73.1033,57.7,55,100,18.59,overcast clouds
121,Sola,VU,-13.8833,167.55,82.26,74,40,9.95,scattered clouds
122,Sistranda,NO,63.7256,8.834,35.6,93,75,6.91,broken clouds
123,Igarka,RU,67.4667,86.5833,20.32,75,88,4.45,overcast clouds
124,Cockburn Town,TC,21.4612,-71.1419,78.15,77,32,17.85,scattered clouds
125,Bardiyah,LY,31.7561,25.0865,61.14,75,1,17.49,clear sky
126,Luderitz,NA,-26.6481,15.1594,61.83,87,97,2.91,overcast clouds
127,Cabo San Lucas,MX,22.8909,-109.9124,68.0,44,100,11.74,overcast clouds
128,Geraldton,AU,-28.7667,114.6,84.2,28,21,11.5,few clouds
129,Siguiri,GN,11.6667,-9.5,81.63,51,82,3.74,broken clouds
130,Ribeira Grande,PT,38.5167,-28.7,59.52,85,100,7.54,overcast clouds
131,Bethel,US,41.3712,-73.414,53.6,50,75,11.5,broken clouds
132,Vostok,RU,46.4856,135.8833,49.44,25,9,8.46,clear sky
133,Aranos,NA,-24.1333,19.1167,61.3,26,12,10.67,few clouds
134,Rocha,UY,-34.4833,-54.3333,57.13,86,67,7.09,broken clouds
135,Leningradskiy,RU,69.3833,178.4167,27.95,89,79,1.48,broken clouds
136,Khatanga,RU,71.9667,102.5,17.24,84,99,17.25,overcast clouds
137,Qasigiannguit,GL,68.8193,-51.1922,48.2,43,75,21.85,broken clouds
138,Broken Hill,AU,-31.95,141.4333,69.8,37,0,12.66,clear sky
139,Puerto El Triunfo,SV,13.2833,-88.55,78.8,100,40,2.3,scattered clouds
140,Uvat,RU,59.1433,68.8953,43.43,80,100,8.95,light rain
141,Vanimo,PG,-2.6741,141.3028,83.12,67,100,4.05,overcast clouds
142,Bengkulu,ID,-3.8004,102.2655,84.99,69,43,9.06,scattered clouds
143,Carnarvon,AU,-24.8667,113.6333,87.8,30,0,10.36,clear sky
144,Partenit,UA,44.578,34.3446,50.27,52,94,2.73,overcast clouds
145,Gamba,GA,-2.65,10.0,76.64,90,65,3.36,light rain
146,Rumoi,JP,43.9344,141.6428,37.4,75,75,13.8,broken clouds
147,Souillac,MU,-20.5167,57.5167,77.0,88,75,14.97,light rain
148,Sijunjung,ID,-0.6876,100.9537,84.65,71,68,2.62,broken clouds
149,Wewak,PG,-3.5534,143.6268,84.56,69,65,7.83,broken clouds
150,Sisimiut,GL,66.9395,-53.6735,38.23,75,98,5.39,overcast clouds
151,Baft,IR,29.234,56.6057,68.0,19,39,8.57,scattered clouds
152,Hithadhoo,MV,-0.6,73.0833,82.89,66,64,4.36,broken clouds
153,Talnakh,RU,69.4865,88.3972,11.82,84,99,9.33,overcast clouds
154,Konevo,RU,62.1215,39.3192,40.39,93,100,6.33,overcast clouds
155,San Policarpo,PH,12.1791,125.5072,81.81,66,20,12.48,few clouds
156,Ponta Do Sol,PT,32.6667,-17.1,59.0,81,44,1.99,scattered clouds
157,Novobirilyussy,RU,56.9514,90.6661,40.46,89,100,6.44,overcast clouds
158,Sao Joao Da Barra,BR,-21.6403,-41.0511,73.22,93,55,4.76,broken clouds
159,Zarubino,RU,42.63,131.0922,47.3,56,83,11.25,broken clouds
160,Keflavik,IS,64.0049,-22.5624,37.4,93,0,11.5,clear sky
161,Soe,ID,-9.8607,124.284,77.32,41,15,7.23,few clouds
162,Torez,UA,48.0388,38.5969,47.62,53,100,6.98,overcast clouds
163,Flinders,AU,-34.5833,150.8552,71.6,43,0,6.91,clear sky
164,Port Elizabeth,ZA,-33.918,25.5701,59.0,88,0,3.44,clear sky
165,Bambous Virieux,MU,-20.3428,57.7575,78.01,88,75,14.97,light rain
166,Nagtipunan,PH,16.2167,121.6,86.18,53,58,3.71,broken clouds
167,Tevriz,RU,57.509,72.4042,51.17,48,84,8.86,broken clouds
168,General Pico,AR,-35.6566,-63.7568,49.33,82,0,6.22,clear sky
169,Sambava,MG,-14.2667,50.1667,76.15,81,100,7.11,overcast clouds
170,Nuuk,GL,64.1835,-51.7216,37.4,93,75,1.14,broken clouds
171,Barrow,US,71.2906,-156.7887,19.4,86,1,16.11,clear sky
172,Sungairaya,ID,0.7,108.9,85.23,70,25,6.33,scattered clouds
173,Robertsport,LR,6.7533,-11.3686,81.63,79,100,5.66,overcast clouds
174,Ilulissat,GL,69.2167,-51.1,48.2,43,75,21.85,broken clouds
175,Darnah,LY,32.767,22.6367,60.98,82,4,16.44,clear sky
176,Pedra Azul,BR,-16.0053,-41.2972,65.3,96,1,2.21,clear sky
177,Hervey Bay,AU,-25.2986,152.8535,75.99,60,56,5.99,broken clouds
178,Vao,NC,-22.6667,167.4833,74.43,71,46,15.84,scattered clouds
179,Port Macquarie,AU,-31.4333,152.9167,71.01,61,10,1.99,clear sky
180,Yagodnoye,RU,62.55,149.6667,21.25,62,7,2.39,clear sky
181,Coquimbo,CL,-29.9533,-71.3436,51.8,87,0,4.61,clear sky
182,Albany,US,42.6001,-73.9662,42.01,55,63,1.99,broken clouds
183,La Palma,US,33.8464,-118.0467,59.0,77,90,10.36,overcast clouds
184,Huilong,CN,31.8111,121.655,75.0,65,7,5.99,clear sky
185,Okuchi,JP,32.0667,130.6167,69.8,30,75,10.36,broken clouds
186,Saint-Ambroise,CA,48.5501,-71.3324,43.0,93,100,16.11,light rain
187,Magistralnyy,RU,56.1725,107.4458,39.15,67,98,9.95,overcast clouds
188,Mahebourg,MU,-20.4081,57.7,77.0,88,75,14.97,moderate rain
189,Rokupr,SL,8.6717,-12.395,77.16,81,93,1.36,overcast clouds
190,Bone,DE,51.9669,12.1396,35.01,69,3,4.18,clear sky
191,Ugoofaaru,MV,5.6667,73.0,83.64,70,5,2.48,clear sky
192,Kampene,CD,-3.6,26.6667,67.35,96,78,1.19,broken clouds
193,Challapata,BO,-18.9,-66.7667,37.45,26,0,3.02,clear sky
194,Charlestown,AU,-32.95,151.6667,70.0,78,24,5.41,few clouds
195,Zheleznodorozhnyy,RU,55.7503,38.0042,39.2,60,0,11.18,clear sky
196,Belyy Yar,RU,53.6039,91.3903,55.4,22,0,4.47,clear sky
197,Matagami,CA,49.7502,-77.6328,17.6,93,20,13.8,few clouds
198,Hamilton,US,39.1834,-84.5333,46.0,93,1,3.4,clear sky
199,Bathsheba,BB,13.2167,-59.5167,78.8,61,20,14.97,few clouds
200,Hasaki,JP,35.7333,140.8333,66.0,27,20,10.36,few clouds
201,Zhezkazgan,KZ,47.8043,67.7144,62.13,40,76,9.22,broken clouds
202,Mohgaon,IN,21.65,78.7167,99.95,7,100,5.55,overcast clouds
203,Airai,TL,-8.9266,125.4092,74.25,40,29,2.98,scattered clouds
204,Krasnaya Gora,RU,52.9995,31.6023,33.8,80,0,6.71,clear sky
205,Teahupoo,PF,-17.8333,-149.2667,80.6,78,20,6.91,light rain
206,Santona,ES,43.4439,-3.4576,57.99,94,20,3.62,few clouds
207,Tendukheda,IN,23.4,79.55,89.6,20,40,11.5,scattered clouds
208,Pisco,PE,-13.7,-76.2167,63.0,88,0,4.61,mist
209,Los Llanos De Aridane,ES,28.6585,-17.9182,66.2,77,90,2.3,overcast clouds
210,Waingapu,ID,-9.6567,120.2641,84.87,54,38,13.24,scattered clouds
211,Buchanan,LR,5.8808,-10.0467,77.0,94,40,1.45,scattered clouds
212,Beringovskiy,RU,63.05,179.3167,31.55,90,44,2.1,scattered clouds
213,Ulyanovsk,RU,54.0,48.0,42.8,56,15,15.66,few clouds
214,Sept-Iles,CA,50.2001,-66.3821,42.01,48,75,17.27,broken clouds
215,Namibe,AO,-15.1961,12.1522,74.79,69,0,8.08,clear sky
216,Yulara,AU,-25.2406,130.9889,77.0,20,0,12.66,clear sky
217,Port Blair,IN,11.6667,92.75,87.55,56,65,4.12,broken clouds
218,Plettenberg Bay,ZA,-34.0527,23.3716,64.47,67,100,4.07,overcast clouds
219,Avarua,CK,-21.2078,-159.775,78.8,78,20,3.44,few clouds
220,Coahuayana,MX,18.7333,-103.6833,71.83,86,82,1.81,broken clouds
221,Suamico,US,44.6319,-88.0393,37.99,56,75,9.22,broken clouds
222,Tall Kayf,TR,37.0833,41.0667,75.2,23,40,13.8,scattered clouds
223,Raudeberg,NO,61.9875,5.1352,37.99,62,8,5.14,clear sky
224,Trinidad,BO,-14.8333,-64.9,65.77,95,100,4.74,overcast clouds
225,Ajdabiya,LY,30.7554,20.2263,58.78,86,0,6.91,clear sky
226,Sandwick,GB,60.0,-1.25,44.6,93,100,9.22,overcast clouds
227,Dolinsk,RU,47.35,142.8,41.0,52,81,15.66,broken clouds
228,Kostomuksha,RU,64.571,30.5767,31.51,91,100,9.57,overcast clouds
229,Ossora,RU,59.2353,163.0719,33.03,98,98,1.32,overcast clouds
230,Punta Alta,AR,-38.8759,-62.0736,55.54,79,1,7.34,clear sky
231,Antofagasta,CL,-23.65,-70.4,59.0,88,20,5.75,few clouds
232,Brigantine,US,39.4101,-74.3646,53.6,66,1,11.5,clear sky
233,Severo-Kurilsk,RU,50.6789,156.125,31.69,96,100,15.37,snow
234,Orito,CO,0.6766,-76.8771,71.73,97,93,2.93,overcast clouds
235,Poum,NC,-20.2333,164.0167,77.43,69,39,23.85,scattered clouds
236,Dongsheng,CN,39.8161,109.9776,49.91,12,26,28.03,scattered clouds
237,Warmbad,NA,-28.45,18.7333,66.97,44,100,3.2,overcast clouds
238,Moose Factory,CA,51.2585,-80.6094,17.6,79,1,2.3,clear sky
239,Bodden Town,KY,19.2833,-81.25,79.0,1,61,3.27,broken clouds
240,Haines Junction,CA,60.7522,-137.5108,41.0,45,0,5.75,clear sky
241,Xinyu,CN,27.8043,114.9334,65.41,84,100,2.17,light rain
242,Sorland,NO,67.667,12.6934,37.4,70,90,10.36,overcast clouds
243,Yerbogachen,RU,61.2767,108.0108,29.46,55,96,13.98,overcast clouds
244,Kaitangata,NZ,-46.2817,169.8464,48.0,65,99,8.01,overcast clouds
245,Barrhead,GB,55.7992,-4.3929,39.0,93,97,1.14,overcast clouds
246,Ylivieska,FI,64.0833,24.55,32.0,92,100,4.0,light snow
247,Samarai,PG,-10.6167,150.6667,85.39,71,78,12.73,broken clouds
248,Port-Gentil,GA,-0.7193,8.7815,78.8,100,40,2.3,scattered clouds
249,Danilovka,RU,50.3557,44.1168,47.44,49,100,4.85,overcast clouds
250,Sovetskiy,RU,61.3614,63.5842,45.5,53,88,11.32,overcast clouds
251,Nogliki,RU,51.8333,143.1667,32.45,58,42,8.08,scattered clouds
252,Puerto Colombia,CO,10.9878,-74.9547,78.8,83,75,12.66,broken clouds
253,Dingle,PH,10.9995,122.6711,89.42,55,67,13.09,light rain
254,Touros,BR,-5.1989,-35.4608,75.2,94,20,4.61,few clouds
255,Jiuquan,CN,39.7432,98.5174,52.81,10,2,12.93,clear sky
256,Aberdeen,GB,57.1437,-2.0981,41.0,81,100,2.3,overcast clouds
257,Pokosnoye,RU,55.5258,101.0536,33.85,95,100,12.1,overcast clouds
258,Auki,SB,-8.7676,160.7034,83.66,73,100,4.7,light rain
259,Owando,CG,-0.4819,15.8999,74.34,84,90,2.37,overcast clouds
260,Bartica,GY,6.4,-58.6167,73.4,100,20,2.3,few clouds
261,High Level,CA,58.5169,-117.136,37.4,52,75,8.05,broken clouds
262,Hwange,ZW,-18.3693,26.5019,64.8,78,83,1.16,broken clouds
263,Velyka Bilozerka,UA,47.2776,34.7062,48.33,58,82,4.7,broken clouds
264,Kodiak,US,57.79,-152.4072,42.8,75,1,6.91,clear sky
265,Tiarei,PF,-17.5333,-149.3333,80.6,78,20,6.91,light rain
266,Vardo,NO,70.3705,31.1107,30.2,74,75,12.66,broken clouds
267,Walvis Bay,NA,-22.9575,14.5053,60.01,94,90,4.61,overcast clouds
268,Udachnyy,RU,66.4167,112.4,16.75,81,100,26.17,overcast clouds
269,Provideniya,RU,64.3833,-173.3,33.8,75,0,1.92,clear sky
270,Vysokogornyy,RU,50.1167,139.15,39.06,64,70,6.31,broken clouds
271,Polovinnoye,RU,54.7914,65.9864,51.73,38,38,18.48,scattered clouds
272,Kuruman,ZA,-27.4524,23.4325,57.0,31,89,5.82,overcast clouds
273,Tiksi,RU,71.6872,128.8694,25.95,94,100,14.81,light snow
274,Beloha,MG,-25.1667,45.05,76.14,62,0,6.87,clear sky
275,Chulym,RU,55.0997,80.9572,53.53,39,99,14.32,overcast clouds
276,Dromolaxia,CY,34.8761,33.586,71.01,73,0,1.14,clear sky
277,Camargo,MX,27.6667,-105.1667,75.18,10,100,15.05,overcast clouds
278,Mago,RU,53.2514,140.1822,41.11,47,49,3.31,scattered clouds
279,Kommunar,RU,59.6206,30.39,37.4,93,90,8.95,overcast clouds
280,Lagoa,PT,39.05,-27.9833,58.73,85,100,9.84,overcast clouds
281,Millinocket,US,45.6573,-68.7098,44.6,93,90,1.1,overcast clouds
282,Yelizovo,RU,53.1873,158.3805,37.4,100,90,11.18,light snow
283,Russell,US,32.3502,-85.1999,55.4,87,1,5.01,clear sky
284,Saldanha,ZA,-33.0117,17.9442,59.0,94,10,10.36,clear sky
285,Fuerte Olimpo,PY,-21.0415,-57.8738,69.13,74,100,4.65,overcast clouds
286,Khandyga,RU,62.6667,135.6,32.36,94,100,6.73,light snow
287,Guerrero Negro,MX,27.9769,-114.0611,58.75,83,100,10.33,overcast clouds
288,Avera,US,33.194,-82.5271,57.2,72,1,3.44,clear sky
289,Taksimo,RU,56.3444,114.8794,38.71,60,100,5.06,overcast clouds
290,Taltal,CL,-25.4,-70.4833,60.84,84,0,0.98,clear sky
291,San Patricio,US,28.017,-97.5169,75.2,83,75,10.36,broken clouds
292,Lebanon,US,36.2081,-86.2911,53.01,93,40,5.53,scattered clouds
293,Srivardhan,IN,18.0333,73.0167,88.38,63,78,5.28,broken clouds
294,Verkhnyaya Inta,RU,65.9811,60.3094,44.01,66,100,17.16,overcast clouds
295,Alofi,NU,-19.0595,-169.9187,80.6,83,84,3.44,broken clouds
296,Zlynka,RU,52.4267,31.7378,33.8,80,0,6.71,clear sky
297,Hofn,IS,64.2539,-15.2082,41.97,71,8,10.8,clear sky
298,Makakilo City,US,21.3469,-158.0858,80.01,61,20,8.05,few clouds
299,Omsukchan,RU,62.5333,155.8,20.7,69,100,3.2,overcast clouds
300,Ambilobe,MG,-13.2,49.05,77.25,73,91,3.69,overcast clouds
301,Ibipeba,BR,-11.6408,-42.0111,69.8,79,99,3.91,overcast clouds
302,Gigmoto,PH,13.7796,124.39,82.65,63,67,8.57,broken clouds
303,Pinotepa Nacional,MX,16.3167,-98.0167,78.06,79,84,2.8,broken clouds
304,Vila Franca Do Campo,PT,37.7167,-25.4333,57.2,94,75,11.5,broken clouds
305,North Platte,US,41.1239,-100.7654,63.0,55,1,11.5,clear sky
306,Prince Rupert,CA,54.3161,-130.3201,50.0,66,1,1.88,clear sky
307,Yellandu,IN,17.6,80.3333,95.67,31,96,7.67,overcast clouds
308,Codrington,AU,-38.2667,141.9667,60.28,67,100,11.34,overcast clouds
309,Songea,TZ,-10.6833,35.65,68.0,94,75,1.9,broken clouds
310,Paamiut,GL,61.994,-49.6678,33.31,99,100,6.24,snow
311,Marion,US,39.7684,-86.1555,46.4,53,20,6.91,few clouds
312,Namatanai,PG,-3.6667,152.4333,84.13,68,98,4.72,overcast clouds
313,Kearney,US,40.6995,-99.0815,64.4,67,1,19.57,clear sky
314,Sitka,US,57.0531,-135.33,51.8,43,1,5.75,clear sky
315,Muros,ES,42.7762,-9.0603,53.01,96,15,1.01,few clouds
316,Karak,JO,31.1667,35.75,68.0,45,1,11.5,haze
317,Onega,RU,63.9061,38.1404,35.8,91,100,10.85,overcast clouds
318,Tuatapere,NZ,-46.1333,167.6833,48.0,64,94,18.01,overcast clouds
319,Altay,CN,47.8667,88.1167,43.88,23,42,4.12,scattered clouds
320,Karpathos,GR,35.507,27.2132,60.8,72,20,32.21,few clouds
321,Gaya,IN,24.7833,85.0,96.8,12,1,9.15,clear sky
322,Esperance,AU,-33.8667,121.9,87.8,20,45,10.36,scattered clouds
323,Matara,LK,5.9485,80.5353,86.31,65,85,3.6,overcast clouds
324,Oda,JP,35.1833,132.5,60.8,41,0,14.97,clear sky
325,Ahar,IR,38.4774,47.0699,69.21,26,33,3.6,scattered clouds
326,Ostrovnoy,RU,68.0531,39.5131,31.39,91,100,23.76,light snow
327,Mato Verde,BR,-15.3972,-42.8664,75.15,62,83,4.0,broken clouds
328,Kruisfontein,ZA,-34.0033,24.7314,65.05,48,100,1.88,overcast clouds
329,Shitanjing,CN,39.2342,106.3439,45.52,23,70,28.61,broken clouds
330,Mocuba,MZ,-16.8392,36.9856,70.9,95,24,3.09,few clouds
331,Shingu,JP,33.7333,135.9833,64.4,42,0,18.41,clear sky
332,Cherskiy,RU,68.75,161.3,22.39,75,93,6.71,overcast clouds
333,Moerai,PF,-22.4333,-151.3333,76.93,62,78,7.58,broken clouds
334,Grand Forks,US,47.9417,-97.4337,35.6,100,90,11.5,overcast clouds
335,Itinga,BR,-16.6131,-41.7653,71.65,82,22,2.17,few clouds
336,Maymyo,MM,22.0333,96.4667,100.4,37,20,8.05,few clouds
337,Baindur,IN,13.8667,74.6333,91.42,54,10,5.84,clear sky
338,Kidal,ML,18.4411,1.4078,82.54,8,5,2.64,clear sky
339,Kula,TR,38.5473,28.6498,47.03,90,87,6.6,overcast clouds
340,Benjamin Constant,BR,-4.3831,-70.0311,73.4,100,75,0.92,broken clouds
341,Victoria,HK,22.2855,114.1577,77.0,78,100,5.99,overcast clouds
342,Tullahoma,US,35.362,-86.2094,48.2,93,1,5.79,clear sky
343,Kutum,SD,14.2,24.6667,73.9,13,46,7.96,scattered clouds
344,Port Moresby,PG,-9.4431,147.1797,87.8,66,40,11.5,haze
345,Plouzane,FR,48.3833,-4.6167,44.6,81,90,21.85,overcast clouds
346,Wuwei,CN,37.9281,102.6414,49.44,24,100,5.21,overcast clouds
347,Lithakia,GR,37.7167,20.8333,51.8,87,20,2.26,few clouds
348,Ndele,CF,8.4109,20.6473,72.27,82,97,3.06,overcast clouds
349,Topolobampo,MX,25.6,-109.05,64.99,77,84,1.99,broken clouds
350,Imeni Poliny Osipenko,RU,52.4201,136.4853,53.74,28,76,7.56,broken clouds
351,Alaverdi,AM,41.0977,44.6732,62.6,82,75,2.3,broken clouds
352,Tunceli,TR,39.1083,39.5471,71.6,33,40,6.91,scattered clouds
353,Kautokeino,NO,69.0125,23.0412,12.94,91,81,2.73,broken clouds
354,Disna,BY,55.568,28.1971,33.31,90,99,9.06,light snow
355,Lata,PT,40.1629,-8.3327,57.2,88,40,4.61,scattered clouds
356,Ipixuna,BR,-1.7625,-48.8043,77.0,94,75,2.3,broken clouds
357,Mamallapuram,IN,12.6264,80.1722,89.6,55,40,5.75,scattered clouds
358,Waddan,LY,29.1614,16.139,58.17,71,14,7.78,few clouds
359,Dubai,AE,25.2582,55.3047,93.2,21,0,5.75,clear sky
360,Ajaccio,FR,42.0,8.9167,50.0,76,0,6.91,clear sky
361,Skjervoy,NO,70.0311,20.9714,33.8,80,75,4.61,light snow
362,Pangnirtung,CA,66.1451,-65.7125,30.56,79,98,6.53,overcast clouds
363,Falam,MM,22.9167,93.6833,90.68,11,0,1.25,clear sky
364,Paternion,AT,46.7142,13.6361,46.99,98,100,4.34,overcast clouds
365,Sao Felix Do Xingu,BR,-6.6447,-51.995,71.83,98,93,1.41,overcast clouds
366,Peterhead,GB,57.5058,-1.7981,42.01,81,100,2.3,overcast clouds
367,College,US,64.8569,-147.8028,57.2,24,20,3.44,few clouds
368,Naze,JP,28.3667,129.4833,73.4,68,40,16.11,scattered clouds
369,Upernavik,GL,72.7868,-56.1549,27.86,71,49,3.98,scattered clouds
370,Umea,SE,63.8284,20.2597,34.0,55,90,12.66,overcast clouds
371,Cayenne,GF,4.9333,-52.3333,78.01,94,75,4.61,mist
372,Lorengau,PG,-2.0226,147.2712,84.06,71,94,1.45,overcast clouds
373,Boulder,US,40.0833,-105.3505,59.0,20,1,3.44,clear sky
374,Sao Bernardo,BR,-3.3614,-42.4178,73.13,97,100,3.74,overcast clouds
375,Nome,US,64.5011,-165.4064,42.8,61,1,8.05,clear sky
376,Kahului,US,20.8947,-156.47,73.4,73,40,16.11,scattered clouds
377,Buraydah,SA,26.326,43.975,80.6,44,0,5.75,clear sky
378,Olafsvik,IS,64.8945,-23.7142,39.54,87,11,11.79,few clouds
379,Tugulym,RU,57.0591,64.6425,48.2,53,20,11.18,few clouds
380,Ancud,CL,-41.8697,-73.8203,52.0,100,90,5.75,fog
381,Arlit,NE,18.7369,7.3853,86.11,11,11,9.73,few clouds
382,Clyde River,CA,70.4692,-68.5914,23.0,93,90,13.8,overcast clouds
383,Yelan,RU,50.949,43.7378,45.88,51,100,4.61,overcast clouds
384,La Ronge,CA,55.1001,-105.2842,33.8,64,100,8.05,overcast clouds
385,Waipawa,NZ,-41.4122,175.5153,59.0,58,11,14.97,few clouds
386,Yarim,YE,14.298,44.3779,60.19,52,68,1.19,broken clouds
387,Chizhou,CN,30.6578,117.4831,63.19,86,100,3.65,overcast clouds
388,Itanhem,BR,-17.1664,-40.33,69.71,94,14,4.0,few clouds
389,Faanui,PF,-16.4833,-151.75,81.48,63,14,2.64,few clouds
390,Abu Samrah,SY,35.3029,37.1841,74.17,32,38,9.4,scattered clouds
391,Beni Mazar,EG,28.4962,30.8029,64.15,70,0,11.92,clear sky
392,Bowen,AU,-20.0167,148.2333,77.0,61,90,18.41,overcast clouds
393,Batagay-Alyta,RU,67.8006,130.4114,30.54,91,100,4.23,overcast clouds
394,Olinda,BR,-8.0089,-34.8553,77.0,78,40,6.91,scattered clouds
395,Caxito,AO,-8.5785,13.6643,78.8,94,75,4.61,broken clouds
396,Chegdomyn,RU,51.1167,133.0167,54.19,27,99,3.8,overcast clouds
397,Torbay,CA,47.6666,-52.7314,42.8,56,1,13.8,clear sky
398,Bubaque,GW,11.2833,-15.8333,77.11,67,27,10.04,scattered clouds
399,Lumsden,CA,50.6501,-104.8678,37.0,93,90,10.36,overcast clouds
400,Mayumba,GA,-3.432,10.6554,77.31,88,77,3.38,broken clouds
401,Angoche,MZ,-16.2325,39.9086,75.47,90,77,3.87,broken clouds
402,Sirok,HU,47.9333,20.2,38.46,81,1,2.1,clear sky
403,Mount Isa,AU,-20.7333,139.5,89.6,29,40,10.36,scattered clouds
404,Siderno,IT,38.2779,16.302,59.0,62,33,3.44,scattered clouds
405,Aiquile,BO,-18.2041,-65.1807,50.86,86,82,1.79,broken clouds
406,Batagay,RU,67.6333,134.6333,32.59,98,100,6.4,overcast clouds
407,Dillon,US,34.4166,-79.3712,51.01,93,1,6.29,clear sky
408,Faya,SA,18.3851,42.4509,68.0,48,40,4.61,scattered clouds
409,Karaton,ID,-6.3424,106.1045,93.2,52,20,17.27,few clouds
410,San Jeronimo,PE,-11.9472,-75.2829,50.18,85,99,1.72,overcast clouds
411,Kananga,CD,-5.8958,22.4178,69.01,97,100,2.24,light rain
412,Marawi,PH,7.9986,124.2928,84.0,77,92,7.0,overcast clouds
413,Saint Anthony,US,45.0205,-93.218,42.01,65,40,8.05,scattered clouds
414,Hobbs,US,32.7026,-103.136,73.99,31,1,18.41,clear sky
415,Ambanja,MG,-13.6833,48.45,76.78,77,84,2.48,broken clouds
416,Abong Mbang,CM,3.9833,13.1833,66.24,96,65,0.94,light rain
417,Sao Gabriel Da Cachoeira,BR,-0.1303,-67.0892,73.17,98,99,0.54,overcast clouds
418,Cangzhou,CN,38.3167,116.8667,66.43,23,91,7.72,overcast clouds
419,Goundam,ML,16.4145,-3.6708,84.85,13,77,5.86,broken clouds
420,Tshikapa,CD,-6.4167,20.8,69.69,97,100,3.42,moderate rain
421,Lyaskelya,RU,61.7667,31.0167,39.22,86,71,9.95,broken clouds
422,Isugod,PH,9.3408,118.1196,85.87,65,30,6.98,scattered clouds
423,Ternate,ID,0.8,127.4,85.57,67,40,7.92,scattered clouds
424,Komsomolskiy,UZ,40.4272,71.7189,75.2,27,3,6.91,clear sky
425,Nanortalik,GL,60.1432,-45.2371,35.91,98,100,5.86,moderate rain
426,Yuzhou,CN,34.1628,113.4639,66.2,59,100,4.47,overcast clouds
427,Tyukhtet,RU,56.5389,89.3011,38.86,98,100,3.65,overcast clouds
428,Bridgetown,BB,13.1,-59.6167,78.8,61,20,14.97,few clouds
429,Lakes Entrance,AU,-37.8811,147.981,64.99,63,10,3.0,clear sky
430,Maragogi,BR,-9.0122,-35.2225,77.67,81,48,6.55,scattered clouds
431,Nioro,GM,13.35,-15.75,73.13,41,11,7.0,few clouds
432,Kitimat,CA,54.0524,-128.6534,44.01,64,1,2.51,clear sky
433,Rio Gallegos,AR,-51.6226,-69.2181,53.6,50,75,11.5,broken clouds
434,Ballina,AU,-28.8667,153.5667,73.4,64,40,10.36,scattered clouds
435,Ust-Kuyga,RU,70.0167,135.6,32.59,96,100,5.7,overcast clouds
436,Nizhniy Kuranakh,RU,58.8353,125.4869,39.67,87,100,7.14,light snow
437,Balteni,RO,46.6667,27.6167,39.2,87,75,11.5,broken clouds
438,Buala,SB,-8.145,159.5921,84.88,71,76,3.18,broken clouds
439,Moindou,NC,-21.6924,165.677,77.0,65,40,9.22,scattered clouds
440,Pechenga,RU,69.5259,31.1703,26.6,74,0,8.05,clear sky
441,Shizilu,CN,35.1711,118.8289,53.29,92,100,4.29,light rain
442,Dunedin,NZ,-45.8742,170.5036,45.0,86,89,21.0,overcast clouds
443,Kabalo,CD,-6.05,26.9167,69.91,97,100,1.12,light rain
444,Lagos,NG,6.5833,3.75,78.8,94,20,2.3,few clouds
445,Teavaro,PF,-17.5,-149.7667,80.6,78,20,6.91,few clouds
446,Wejherowo,PL,54.6057,18.2356,33.01,86,0,4.61,clear sky
447,North Myrtle Beach,US,33.816,-78.68,57.99,88,1,3.44,clear sky
448,Egvekinot,RU,66.3167,-179.1667,27.34,90,18,0.78,few clouds
449,Guasdualito,VE,7.2424,-70.7324,77.0,94,49,1.14,scattered clouds
450,Katherine,AU,-14.4667,132.2667,91.4,49,40,14.97,scattered clouds
451,Newport,GB,51.5877,-2.9984,39.0,82,11,1.01,few clouds
452,Grindavik,IS,63.8424,-22.4338,37.4,93,0,11.5,clear sky
453,Kimbe,PG,-5.5502,150.1429,85.44,66,61,4.23,light rain
454,Portland,US,45.5234,-122.6762,52.0,76,90,4.61,overcast clouds
455,Shihezi,CN,44.3,86.0333,55.47,16,100,8.05,overcast clouds
456,Harper,LR,4.375,-7.7169,75.83,86,98,3.02,overcast clouds
457,Mitu,CO,1.1983,-70.1733,73.54,96,100,0.74,overcast clouds
458,Saint-Augustin,CA,51.226,-58.6502,34.07,83,21,3.29,few clouds
459,Vila,PT,42.0304,-8.1588,51.01,95,46,2.44,scattered clouds
460,Mozirje,SI,46.3394,14.9633,45.0,75,100,1.01,overcast clouds
461,Tahlequah,US,35.9154,-94.97,64.99,55,1,5.75,clear sky
462,Padang,ID,-0.9492,100.3543,86.0,70,40,4.61,scattered clouds
463,Bagdarin,RU,54.4333,113.6,36.3,90,100,8.16,snow
464,Myre,NO,69.1036,15.9492,35.6,64,75,16.11,light snow
465,Esmeraldas,BR,-19.7625,-44.3139,62.6,82,0,4.61,clear sky
466,Dembi Dolo,ET,8.5333,34.8,59.02,93,100,0.74,moderate rain
467,Toamasina,MG,-18.1667,49.3833,75.2,94,75,9.22,light rain
468,Doka,SD,13.5167,35.7667,83.25,50,97,16.96,overcast clouds
469,Qeshm,IR,26.9581,56.2719,91.4,27,52,4.61,broken clouds
470,Umm Lajj,SA,25.0213,37.2685,81.97,50,0,4.03,clear sky
471,Beysehir,TR,37.6773,31.7246,51.69,77,23,6.98,few clouds
472,Loukhi,RU,66.0764,33.0381,32.29,82,99,10.67,overcast clouds
473,Dalianwan,CN,39.0286,121.695,62.6,45,0,8.95,clear sky
474,Salta,AR,-24.7859,-65.4117,55.99,94,90,1.01,overcast clouds
475,The Valley,AI,18.217,-63.0578,78.8,73,20,10.36,few clouds
476,Nancha,CN,47.1333,129.2667,63.27,18,99,4.81,overcast clouds
477,Kloulklubed,PW,7.0419,134.2556,86.0,70,75,12.66,broken clouds
478,Asau,RO,46.4333,26.4,37.99,64,71,0.87,broken clouds
479,Pemberton,CA,50.3164,-122.8027,40.66,95,100,1.25,overcast clouds
480,Queenstown,ZA,-31.8976,26.8753,59.49,35,98,3.62,overcast clouds
481,Comodoro Rivadavia,AR,-45.8667,-67.5,57.2,58,0,8.05,clear sky
482,Osmena,PH,10.5208,119.9258,82.9,67,50,10.78,scattered clouds
483,Krasnyy Yar,RU,46.5331,48.3456,50.0,62,75,13.42,broken clouds
484,Anloga,GH,5.7947,0.8973,80.6,94,20,3.44,few clouds
485,Nassjo,SE,57.6531,14.6968,28.4,80,12,5.53,few clouds
486,Mora,CM,11.0461,14.1401,83.39,34,89,2.8,overcast clouds
487,Hirara,JP,24.8,125.2833,78.8,57,40,11.5,scattered clouds
488,Aykhal,RU,66.0,111.5,13.12,90,100,29.82,light snow
489,Fortuna,US,40.5982,-124.1573,48.99,100,90,4.61,overcast clouds
490,Sur,OM,22.5667,59.5289,90.82,36,16,2.8,few clouds
491,Marsta,SE,59.6216,17.8548,34.0,69,0,11.5,clear sky
492,Santo Amaro Da Imperatriz,BR,-27.6881,-48.7786,72.0,83,40,4.61,scattered clouds
493,Flin Flon,CA,54.7682,-101.865,29.16,76,100,2.98,overcast clouds
494,Zavallya,UA,48.2135,30.0156,37.96,92,94,14.85,overcast clouds
495,Pila,PL,53.1515,16.7378,34.0,69,48,3.0,scattered clouds
496,Deputatskiy,RU,69.3,139.9,28.65,80,77,3.15,broken clouds
497,Ulladulla,AU,-35.35,150.4667,71.6,43,0,6.91,clear sky
498,Shigony,RU,53.3875,48.6777,45.57,56,27,14.25,scattered clouds
499,Vaitape,PF,-16.5167,-151.75,81.48,64,12,2.62,few clouds
500,Carballo,ES,43.213,-8.691,55.99,96,45,1.88,scattered clouds
501,Port Dover,CA,42.7834,-80.1997,30.99,80,39,2.3,scattered clouds
502,Khovu-Aksy,RU,51.1333,93.6,37.83,38,70,6.91,broken clouds
503,Chitral,PK,35.8462,71.7858,68.2,26,11,5.35,few clouds
504,Quatre Cocos,MU,-20.2078,57.7625,78.01,88,75,14.97,light rain
505,Saint-Pierre,RE,-21.3393,55.4781,80.6,65,0,16.11,clear sky
506,Bandarbeyla,SO,9.4942,50.8122,83.46,65,78,5.41,broken clouds
507,Douentza,ML,14.9951,-2.9517,86.09,20,78,4.25,broken clouds
508,Balykshi,KZ,47.0667,51.8667,53.6,76,75,20.13,broken clouds
509,Gambela,ET,8.25,34.5833,72.68,89,100,1.41,light rain
510,Salmo,CA,49.1999,-117.2689,44.6,93,96,2.3,overcast clouds
511,Shymkent,KZ,42.3,69.6,75.2,25,0,6.71,clear sky
512,Tigzirt,DZ,36.8886,4.1198,65.23,57,67,6.08,broken clouds
513,Vila Do Maio,CV,15.1333,-23.2167,68.0,73,40,11.5,scattered clouds
514,Say,NE,13.1007,2.3689,87.8,37,0,5.75,clear sky
515,Cam Ranh,VN,11.9214,109.1591,89.6,62,20,9.22,few clouds
516,Korla,CN,41.7597,86.1469,58.12,15,62,5.95,broken clouds
517,Shelburne,CA,44.0787,-80.2041,34.0,74,31,10.56,scattered clouds
518,Kaeo,NZ,-35.1,173.7833,63.0,74,13,5.01,few clouds
519,Clifton,US,40.8584,-74.1638,55.4,54,1,14.97,clear sky
520,Thinadhoo,MV,0.5333,72.9333,82.65,63,59,2.95,broken clouds
521,San Pedro De Macoris,DO,18.4616,-69.2972,73.4,83,40,4.61,scattered clouds
522,Elizabeth City,US,36.2946,-76.2511,51.8,76,1,5.75,clear sky
523,Laguna,US,38.421,-121.4238,52.0,62,1,4.61,clear sky
524,Saint-Michel-Des-Saints,CA,46.6834,-73.9159,30.99,85,97,13.69,overcast clouds
525,Sorong,ID,-0.8833,131.25,84.92,67,29,6.22,scattered clouds
526,Yakeshi,CN,49.2833,120.7333,60.55,46,100,15.84,overcast clouds
527,Ankang,CN,32.68,109.0172,68.97,61,100,0.4,overcast clouds
528,Qaqortoq,GL,60.7167,-46.0333,50.0,32,75,32.21,light rain
529,Tres Arroyos,AR,-38.3739,-60.2798,52.2,81,74,6.02,broken clouds
530,Mitsamiouli,KM,-11.3847,43.2844,78.8,83,20,3.44,few clouds
531,Lamlash,GB,55.5336,-5.1296,39.2,87,97,6.91,overcast clouds
532,Middle Island,US,40.8843,-72.9373,52.0,58,1,9.22,clear sky
533,Surt,LY,31.2089,16.5887,59.05,86,0,8.55,clear sky
534,Minna,NG,9.6139,6.5569,76.19,79,100,2.35,overcast clouds
535,Marystown,CA,47.1666,-55.1483,37.49,88,95,7.76,overcast clouds
536,San Cristobal,VE,7.7669,-72.225,68.49,76,55,1.9,broken clouds
537,Gazanjyk,TM,39.2446,55.5154,80.51,30,2,2.89,clear sky
538,Coihaique,CL,-45.5752,-72.0662,45.21,96,78,5.5,broken clouds
539,Dong Hoi,VN,17.4833,106.6,85.96,75,81,11.16,broken clouds
540,Saint-Joseph,RE,-21.3667,55.6167,80.6,65,0,16.11,light rain
541,Suntar,RU,62.1444,117.6319,30.96,90,100,10.54,light snow
542,Goderich,CA,43.7501,-81.7165,30.2,69,45,4.61,scattered clouds
543,Acapulco,MX,16.8634,-99.8901,79.47,73,86,2.66,overcast clouds
544,Bilma,NE,18.6853,12.9164,83.28,13,4,8.86,clear sky
545,Balgazyn,RU,51.0,95.2,42.6,36,97,8.57,overcast clouds
546,Esso,RU,55.9333,158.7,33.73,97,100,2.64,light snow
547,Oktyabrskoye,RU,43.0645,44.7417,51.8,82,75,2.24,broken clouds
548,Iquitos,PE,-3.7481,-73.2472,77.0,94,0,1.14,clear sky
549,Esna,EG,25.2934,32.554,78.8,34,0,5.75,haze
550,Emerald,AU,-23.5333,148.1667,82.99,21,0,8.05,clear sky
551,Senanga,ZM,-16.1167,23.2667,59.36,83,6,4.61,clear sky
552,Maripi,CO,5.5519,-74.0086,63.01,95,79,5.41,broken clouds
553,Krasnoselkup,RU,65.7,82.4667,29.89,77,51,10.25,broken clouds
554,North Bend,US,43.4065,-124.2243,46.4,93,90,4.61,overcast clouds
555,La Llanada,CO,1.49,-77.5835,49.5,96,95,2.01,overcast clouds
556,Morondava,MG,-20.2833,44.2833,77.16,70,100,5.14,overcast clouds
557,Shebunino,RU,46.4339,141.8603,39.45,57,6,10.69,clear sky
558,Koshurnikovo,RU,54.1667,93.3,35.26,94,100,2.84,overcast clouds
559,Daru,PG,-9.0763,143.2092,80.29,78,99,4.27,overcast clouds
560,Wajir,KE,1.7471,40.0573,78.8,83,75,4.61,broken clouds
561,Santiago,CL,-33.4569,-70.6483,57.0,76,0,1.05,clear sky
562,Okha,RU,53.5739,142.9478,33.89,46,0,1.9,clear sky
563,Seddon,AU,-37.8068,144.8916,63.0,67,90,10.36,overcast clouds
564,Mareeba,AU,-17.0,145.4333,75.2,94,75,11.5,light intensity drizzle
565,Camalu,MX,30.85,-116.0667,48.99,61,6,1.99,clear sky
566,Nyrob,RU,60.733,56.7202,39.58,75,100,10.36,overcast clouds
567,Roebourne,AU,-20.7833,117.1333,87.84,18,0,12.17,clear sky
568,Adrar,MR,20.5022,-10.0711,75.69,22,43,10.2,scattered clouds
569,Port Augusta,AU,-32.5,137.7667,69.8,52,2,10.36,clear sky
570,Sabha,LY,27.0377,14.4283,66.15,36,0,10.47,clear sky
571,Whitehorse,CA,60.7161,-135.0538,48.2,29,1,6.91,clear sky
572,Vetluga,RU,57.8557,45.781,33.3,96,100,14.74,snow
573,Marzuq,YE,14.4,46.4667,75.74,49,54,1.95,broken clouds
574,San Quintin,MX,30.4833,-115.95,57.02,85,25,12.71,scattered clouds
575,San Vicente,AR,-26.6167,-54.1333,51.8,98,5,2.08,light rain
576,Kholtoson,RU,50.2981,103.3097,36.63,54,98,8.59,overcast clouds
577,Tilichiki,RU,60.4667,166.1,31.69,97,100,5.57,overcast clouds
578,Kinkala,CG,-4.3614,14.7644,75.2,94,75,3.44,light rain
579,Iroquois Falls,CA,48.7669,-80.6831,12.2,85,1,3.44,clear sky
580,Siuna,NI,13.7332,-84.7773,69.24,95,23,1.45,few clouds
581,Thung Song,TH,8.1645,99.6804,95.0,53,71,6.38,broken clouds
582,Chapais,CA,49.7834,-74.8492,23.0,86,90,12.66,light snow
583,Linxia,CN,35.6003,103.2064,47.41,43,100,2.04,overcast clouds
584,Hambantota,LK,6.1241,81.1185,89.6,74,40,4.61,scattered clouds
585,Meulaboh,ID,4.1363,96.1285,86.04,62,89,5.08,overcast clouds
586,Andover,GB,51.2083,-1.4825,37.4,75,9,9.22,clear sky
587,Tahta,EG,26.7693,31.5021,77.0,18,0,13.8,clear sky
588,Noyon,FR,49.5833,3.0,39.99,93,0,13.8,clear sky
589,Manado,ID,1.487,124.8455,77.0,88,40,10.36,scattered clouds
590,Anchorage,US,61.2181,-149.9003,50.0,40,1,3.69,clear sky
591,Peniche,PT,39.3558,-9.3811,55.99,92,95,10.0,overcast clouds
592,Sechura,PE,-5.5569,-80.8222,69.93,76,54,13.53,broken clouds
593,Paita,PE,-5.0892,-81.1144,69.85,77,59,11.72,broken clouds
594,Okhotsk,RU,59.3833,143.3,28.13,53,1,2.21,clear sky
595,Dudinka,RU,69.4058,86.1778,16.47,86,100,11.79,overcast clouds
596,Zyryanka,RU,65.75,150.85,27.39,70,21,14.85,few clouds
597,Regina,CA,50.4501,-104.6178,37.0,93,90,10.36,overcast clouds
598,Ondangwa,NA,-17.9167,15.95,57.2,62,0,3.44,clear sky
599,Conde,BR,-7.2597,-34.9075,75.2,94,0,3.44,clear sky
600,Providencia,MX,28.7167,-111.5833,72.0,71,100,8.01,overcast clouds
601,Puerto Carreno,CO,6.189,-67.4859,77.77,78,100,3.36,overcast clouds
602,Trairi,BR,-3.2778,-39.2689,75.4,86,15,5.79,few clouds
603,Rosetta,EG,31.4044,30.4164,64.4,68,40,13.8,scattered clouds
604,Motygino,RU,58.1831,94.7592,39.96,81,98,6.89,overcast clouds
605,Luau,AO,-10.7073,22.2247,62.8,90,33,2.59,scattered clouds
606,Vermillion,US,42.7794,-96.9292,62.6,59,1,10.36,clear sky
607,Ormond Beach,US,29.2858,-81.0559,70.0,77,1,5.75,clear sky
608,Oranjemund,NA,-28.55,16.4333,62.74,84,100,6.13,overcast clouds
609,Banyo,CM,6.75,11.8167,66.38,80,66,2.08,broken clouds
610,Marau,BR,-28.4492,-52.2,51.75,94,67,2.71,broken clouds
611,Diu,IN,20.7141,70.9822,94.89,35,5,1.95,clear sky
612,Kalat,PK,29.0225,66.5916,71.33,13,1,4.94,clear sky
613,Salalah,OM,17.0151,54.0924,86.0,62,75,6.91,broken clouds
614,Lalibela,ET,12.0333,39.0333,57.4,82,100,2.01,light rain
615,Carauari,BR,-4.8828,-66.8958,73.94,98,100,0.81,moderate rain
616,Maryville,US,35.7565,-83.9705,51.01,87,1,3.44,clear sky
617,Dwarka,IN,22.2394,68.9678,86.56,55,0,10.13,clear sky
618,Lasa,IT,46.6166,10.7002,53.01,87,40,2.3,scattered clouds
619,Severo-Yeniseyskiy,RU,60.3725,93.0408,36.57,56,30,5.37,scattered clouds
620,Sao Filipe,CV,14.8961,-24.4956,71.74,71,83,9.4,broken clouds
621,Corning,US,42.1428,-77.0547,37.4,65,90,3.44,overcast clouds
622,Sobradinho,BR,-12.8333,-39.1,69.42,98,100,0.16,overcast clouds
623,Denpasar,ID,-8.65,115.2167,87.8,74,20,18.41,few clouds
624,Juneau,US,58.3019,-134.4197,46.4,53,20,4.61,few clouds
625,Copiapo,CL,-27.3667,-70.3333,60.8,77,90,3.44,overcast clouds
626,Xichang,CN,27.8964,102.2634,77.59,30,52,5.28,broken clouds
627,Boguchany,RU,58.3814,97.4531,40.66,73,98,9.35,overcast clouds
628,Poronaysk,RU,49.2167,143.1167,36.77,55,94,10.16,overcast clouds
629,Sorokino,RU,53.75,84.9167,49.01,53,100,7.54,overcast clouds
630,Aquiraz,BR,-3.9014,-38.3911,77.0,88,0,3.44,clear sky
631,Lavrentiya,RU,65.5833,-171.0,31.8,92,98,1.21,overcast clouds
632,Garissa,KE,-0.4536,39.6401,81.05,72,63,14.85,broken clouds
633,Koslan,RU,63.4564,48.8989,40.44,83,100,3.22,overcast clouds
634,Santa Isabel Do Rio Negro,BR,-0.4139,-65.0192,73.85,98,93,2.57,overcast clouds
635,Grand Gaube,MU,-20.0064,57.6608,78.01,82,100,8.99,light rain
636,Cotonou,BJ,6.3654,2.4183,82.4,83,40,8.05,light rain
637,Gat,IL,31.61,34.7642,66.99,100,30,3.0,scattered clouds
638,Yuzawa,JP,39.1667,140.5,51.8,37,20,18.41,few clouds
639,Pedernales,DO,18.0384,-71.744,77.14,72,65,3.85,broken clouds
640,Uetze,DE,52.4651,10.2047,37.0,74,40,2.3,scattered clouds
641,Todos Santos,MX,23.45,-110.2167,72.0,20,84,2.64,broken clouds
642,Lodwar,KE,3.1191,35.5973,81.41,57,100,3.27,light rain
643,Gawler,AU,-34.6,138.7333,70.0,47,0,5.99,clear sky
644,Huarmey,PE,-10.0681,-78.1522,66.94,86,12,8.43,few clouds
645,Sivaki,RU,52.6333,126.75,64.09,19,100,10.94,overcast clouds
646,Rurrenabaque,BO,-14.4413,-67.5278,66.27,98,100,2.13,overcast clouds
647,Rosa Zarate,EC,0.3333,-79.4667,73.72,96,100,1.07,light rain
648,Tangzhai,CN,34.4328,116.5911,63.19,71,100,4.9,overcast clouds
649,Ayan,RU,56.45,138.1667,31.87,83,93,5.44,overcast clouds
650,Fethiye,TR,36.6217,29.1164,64.4,72,0,9.22,clear sky
651,Kasongo,CD,-4.45,26.6667,67.64,93,79,1.77,broken clouds
652,Mehamn,NO,71.0357,27.8492,33.8,86,75,8.05,light snow
653,Chifeng,CN,42.2683,118.9636,65.62,38,100,15.79,overcast clouds
654,Camopi,GF,3.1655,-52.3158,72.07,99,100,0.83,light rain
655,Awjilah,LY,29.1081,21.2869,60.1,62,0,6.08,clear sky
656,Trincomalee,LK,8.5711,81.2335,84.25,66,56,6.38,broken clouds
657,Manaure,CO,11.7751,-72.4445,79.34,71,48,10.67,scattered clouds
658,Bama,NG,11.5221,13.6856,81.55,44,88,6.64,overcast clouds
659,Khani,GE,41.9563,42.9566,53.6,94,0,6.91,light rain
660,Miramar,US,25.9873,-80.2323,79.0,83,1,8.05,clear sky
661,Fort Nelson,CA,58.8053,-122.7002,41.0,42,75,16.11,broken clouds
662,Ibotirama,BR,-12.1853,-43.2206,74.16,81,100,1.7,overcast clouds
663,Itaituba,BR,-4.2761,-55.9836,73.06,98,82,1.39,heavy intensity rain
664,Caravelas,BR,-17.7125,-39.2481,74.12,87,3,6.29,clear sky
665,Charters Towers,AU,-20.1,146.2667,74.82,64,98,10.47,overcast clouds
666,Jurado,CO,7.1053,-77.7641,77.52,90,100,3.38,light rain
667,Crowley,US,30.2141,-92.3746,61.0,90,1,5.77,clear sky
668,Twentynine Palms,US,34.1356,-116.0542,64.0,29,1,16.11,clear sky
669,Amapa,BR,1.0,-52.0,70.14,99,100,1.61,overcast clouds
670,Alice,US,27.7523,-98.0697,75.2,94,90,6.91,overcast clouds
671,Oistins,BB,13.0667,-59.5333,78.8,61,20,14.97,few clouds
672,Riyadh,SA,24.6877,46.7219,86.0,10,20,8.05,few clouds
673,Cap Malheureux,MU,-19.9842,57.6142,78.01,82,100,8.99,light rain
674,Andros Town,BS,24.7,-77.7667,75.2,94,0,4.61,clear sky
675,Puri,IN,19.8,85.85,96.8,38,42,9.22,scattered clouds
676,Maumere,ID,-8.6199,122.2111,84.7,61,30,7.36,scattered clouds
677,Andenes,NO,69.3143,16.1194,35.6,64,75,16.11,broken clouds
678,Gurnee,US,42.3703,-87.902,39.99,65,20,3.44,few clouds
679,La Seyne-Sur-Mer,FR,43.0982,5.8847,59.0,57,98,10.0,overcast clouds
680,Guatire,VE,10.4762,-66.5427,77.0,88,40,1.14,scattered clouds
681,Watsa,CD,3.0372,29.5355,63.95,99,100,2.48,light rain
682,Bani Walid,LY,31.7566,13.9942,57.52,80,57,7.58,broken clouds
683,Tiznit,MA,29.5833,-9.5,55.2,81,87,1.01,overcast clouds
684,Princeville,CA,45.7668,-61.2985,46.0,100,90,14.97,heavy intensity rain
685,Zhuanghe,CN,39.7008,122.9911,61.16,40,81,11.27,broken clouds
686,Fairview,US,40.8126,-73.999,55.4,54,1,6.91,clear sky
687,Riverton,US,40.5219,-111.9391,50.0,81,40,8.05,scattered clouds
688,Cabra,ES,37.4725,-4.4421,54.0,94,90,2.44,fog
689,Jacareacanga,BR,-6.2222,-57.7528,73.47,98,52,0.87,light rain
690,Komsomolskoye,RU,55.2567,47.5461,41.32,54,3,20.42,clear sky
691,Hohhot,CN,40.8106,111.6522,57.2,33,20,22.37,sand
692,Roald,NO,62.5833,6.1333,37.4,75,20,16.11,few clouds
693,Bouna,CI,9.2667,-3.0,74.03,85,82,4.63,broken clouds
694,San Felipe,VE,10.3399,-68.7425,72.66,94,89,4.43,overcast clouds
695,Te Anau,NZ,-45.4167,167.7167,44.44,79,85,5.79,overcast clouds
696,Eyl,SO,7.9803,49.8164,84.7,66,82,7.92,broken clouds
697,Manggar,ID,-2.8833,108.2667,86.76,61,22,8.88,few clouds
698,Nueva Helvecia,UY,-34.3,-57.2333,54.0,94,20,6.46,few clouds
699,Abha,SA,18.2164,42.5053,68.0,48,40,4.61,scattered clouds
700,Mecca,SA,21.4267,39.8261,87.57,30,5,8.63,clear sky
701,Laje,BR,-10.1833,-40.9667,69.98,84,85,3.27,overcast clouds
702,Cabot,US,34.9745,-92.0165,60.01,82,1,6.87,clear sky
703,Mujiayingzi,CN,42.1167,118.7833,63.07,40,100,15.57,overcast clouds
704,Ngunguru,NZ,-35.6167,174.5,63.0,74,39,5.01,scattered clouds
705,Le Vauclin,MQ,14.5452,-60.8388,72.0,83,75,13.69,broken clouds
706,Altea,ES,38.5989,-0.0514,57.0,93,98,8.08,overcast clouds
707,Antsohihy,MG,-14.8796,47.9875,73.99,84,100,4.05,overcast clouds
708,Yatou,CN,37.15,122.3833,62.02,57,55,13.24,broken clouds
709,Port Hardy,CA,50.6996,-127.4199,48.2,93,40,2.3,scattered clouds
710,Cervo,ES,43.6702,-7.4101,46.99,100,98,3.4,overcast clouds
711,Gravdal,NO,68.1214,13.5031,33.8,93,75,4.61,broken clouds
712,Istok,XK,42.7808,20.4875,46.99,75,0,2.62,clear sky
713,Fuquay-Varina,US,35.5843,-78.8,52.0,80,25,7.25,scattered clouds
714,Santa Ana,US,33.7456,-117.8678,60.01,77,90,10.36,overcast clouds
715,Sherlovaya Gora,RU,50.5667,116.25,59.68,33,34,15.05,light rain
716,Batemans Bay,AU,-35.7167,150.1833,66.99,67,0,7.18,clear sky
717,Rafraf,TN,37.1904,10.1837,62.6,82,20,13.8,few clouds
718,Gorontalo,ID,0.5412,123.0595,87.93,62,100,7.9,overcast clouds
719,Omboue,GA,-1.5746,9.2618,78.15,87,81,4.07,broken clouds
720,Lexington,US,37.9887,-84.4777,45.0,87,1,3.44,clear sky
